,city name,country,city id,latitude_deg,longitude_deg,temp_max_F,humidity_%,cloudiness_%,winds speed_mph
0,Yellowknife,CA,6185377,62.46,-114.35,1.99,84,75,3.36
1,Cabo San Lucas,MX,3985710,22.89,-109.91,89.01,58,5,3.36
2,Ushuaia,AR,3833367,-54.8,-68.3,64.4,36,0,5.82
3,Hilo,US,5855927,19.73,-155.09,80.6,74,90,5.82
4,Marti,CU,3547519,22.95,-80.92,77.0,94,75,17.22
5,Rikitea,PF,4030556,-23.12,-134.97,73.44,75,0,15.28
6,Lebu,CL,3883457,-37.62,-73.65,55.45,63,0,10.74
7,Codrington,AU,2171099,-38.27,141.97,48.42,73,45,12.73
8,Ahipara,NZ,2194098,-35.17,173.17,62.13,93,100,14.54
9,Santa Maria,BR,3450083,-29.68,-53.81,73.4,33,20,12.75
10,Kapaa,US,5848280,22.08,-159.32,82.99,88,75,11.45
11,Aleksandrovka,UA,713676,46.84,32.76,50.0,93,0,13.42
12,Ilo,PE,3938415,-17.64,-71.34,69.31,60,0,10.27
13,Port Lincoln,AU,2063036,-34.73,135.87,54.12,62,90,11.54
14,Pocoes,BR,3453337,-14.53,-40.37,65.82,97,100,1.34
15,Carnarvon,AU,2074865,-24.87,113.63,69.8,94,0,14.99
16,Punta Arenas,CL,3874787,-53.15,-70.92,46.4,81,90,8.05
17,Bluff,NZ,2206939,-46.6,168.33,60.01,89,68,8.99
18,Vardo,NO,777019,70.37,31.11,39.2,80,75,34.45
19,Yumen,CN,1528998,40.28,97.2,35.67,65,0,15.97
20,Chumikan,RU,2025256,54.72,135.31,13.35,90,0,27.09
21,Fort Abbas,PK,1179223,29.19,72.85,72.23,19,0,6.93
22,Nizhnevartovsk,RU,1497543,60.93,76.55,35.6,98,90,13.42
23,Pacific Grove,US,5380437,36.62,-121.92,66.99,59,1,3.36
24,Pangnirtung,CA,6096551,66.15,-65.71,8.6,55,20,13.87
25,Atuona,PF,4020109,-9.8,-139.03,79.0,77,8,21.05
26,Puerto Ayora,EC,3652764,-0.74,-90.35,80.6,65,40,14.99
27,Constantine,DZ,2501152,36.37,6.61,60.8,51,0,5.82
28,Port Alfred,ZA,964432,-33.59,26.89,68.29,85,100,11.92
29,Bathsheba,BB,3374083,13.22,-59.52,86.0,66,20,17.22
30,Hovd,MN,1516048,48.01,91.64,22.82,91,2,2.21
31,Yangjiang,CN,1806408,21.85,111.97,66.76,78,93,5.55
32,Leningradskiy,RU,2123814,69.38,178.42,4.87,80,57,7.99
33,Torbay,CA,6167817,47.67,-52.73,30.0,58,75,18.34
34,Cape Town,ZA,3369157,-33.93,18.42,70.0,68,20,17.22
35,Galesong,ID,1644605,-5.32,119.37,79.99,75,15,5.57
36,Mhlume,SZ,934966,-26.03,31.85,75.2,50,70,6.93
37,Ust-Uda,RU,2013865,54.17,103.03,20.07,95,57,4.72
38,Qaanaaq,GL,3831208,77.48,-69.36,-0.81,87,99,1.36
39,Lagoa,PT,3372964,39.05,-27.98,61.0,72,28,19.17
40,Los Llanos De Aridane,ES,2514651,28.66,-17.92,64.4,88,75,11.41
41,Pevek,RU,2122090,69.7,170.31,2.82,86,97,3.0
42,Puebloviejo,CO,3671615,10.99,-74.28,87.01,71,98,1.01
43,Sorland,NO,3137469,67.67,12.69,42.8,87,40,25.28
44,Ostrovnoy,RU,556268,68.05,39.51,36.61,87,88,23.11
45,Ejido,VE,3644417,8.55,-71.24,73.98,67,92,3.44
46,Hobart,AU,2163355,-42.88,147.33,45.0,65,20,6.55
47,Jamestown,US,5122534,42.1,-79.24,64.4,36,1,16.11
48,Poum,NC,2138555,-20.23,164.02,75.81,81,28,9.08
49,Komsomolskiy,UZ,1513491,40.43,71.72,46.44,45,0,1.83
50,Chokurdakh,RU,2126123,70.63,147.92,-14.44,85,0,5.06
51,Ixtapa,MX,4004293,20.7,-105.2,86.0,45,5,6.93
52,Mataura,NZ,6201424,-46.19,168.86,60.01,89,92,10.0
53,Meulaboh,ID,1214488,4.14,96.13,75.87,88,100,3.85
54,Mogadishu,SO,53654,2.04,45.34,79.21,84,40,11.77
55,Barrow,US,5880054,71.29,-156.79,26.6,73,75,26.4
56,Jedburgh,GB,2645970,55.48,-2.55,45.0,83,72,11.9
57,Fortuna,US,5563839,40.6,-124.16,69.01,77,1,8.05
58,Vinh Long,VN,1562693,10.25,105.97,77.0,100,40,1.12
59,Florianopolis,BR,6323121,-27.61,-48.5,69.01,59,75,18.34
60,Thanh Hoa,VN,1566166,19.8,105.77,66.65,81,47,3.85
61,Burnie,AU,2173125,-41.07,145.92,44.01,67,0,17.0
62,Kolokani,ML,2454955,13.57,-8.03,83.23,23,0,5.97
63,Linguere,SN,2249281,15.4,-15.12,90.1,20,0,7.27
64,Yerbogachen,RU,2012956,61.28,108.01,14.97,96,100,4.59
65,Hermanus,ZA,3366880,-34.42,19.23,68.0,79,79,7.0
66,Lompoc,US,5367788,34.64,-120.46,75.2,49,1,6.93
67,Dikson,RU,1507390,73.51,80.55,1.38,92,0,7.45
68,Arraial Do Cabo,BR,3471451,-22.97,-42.03,75.2,73,75,6.93
69,Ancud,CL,3899695,-41.87,-73.82,57.99,87,75,18.34
70,Panubigan,PH,1958647,7.43,123.35,78.53,82,100,5.41
71,Westport,US,4845585,41.14,-73.36,61.0,54,1,5.82
72,Constitucion,CL,3893726,-35.33,-72.42,58.95,57,59,22.12
73,Kavaratti,IN,1267390,10.57,72.64,82.51,76,77,6.98
74,Bredasdorp,ZA,1015776,-34.53,20.04,66.2,88,69,10.29
75,Sao Felix Do Xingu,BR,3388847,-6.64,-51.99,81.27,85,100,3.65
76,Rafsanjan,IR,118994,30.41,55.99,52.25,40,0,2.59
77,Edremit,TR,315985,39.6,27.02,59.0,58,40,12.75
78,Salalah,OM,286621,17.02,54.09,75.2,64,0,2.24
79,Sistranda,NO,3139597,63.73,8.83,44.6,87,75,28.86
80,Joshimath,IN,1268814,30.57,79.57,45.19,51,0,3.69
81,Fairbanks,US,5861897,64.84,-147.72,-25.6,66,20,1.25
82,Rio Gallegos,AR,3838859,-51.62,-69.22,46.4,93,90,13.87
83,Tashla,RU,484232,51.77,52.74,46.74,57,100,3.71
84,Belaya Gora,RU,2126785,68.53,146.42,-16.96,79,29,4.7
85,Prince Albert,CA,6113335,53.2,-105.77,48.2,66,75,10.29
86,Bethel,US,5282297,41.37,-73.41,61.0,38,1,9.17
87,Bandarbeyla,SO,64814,9.49,50.81,76.01,73,0,15.7
88,Ilhabela,BR,3461425,-23.78,-45.36,70.52,74,33,7.36
89,Touros,BR,3386213,-5.2,-35.46,86.0,58,20,17.22
90,Sitka,US,5557293,57.05,-135.33,39.2,86,75,4.7
91,Hami,CN,1529484,42.8,93.45,42.24,56,100,4.68
92,Albany,US,5106841,42.6,-73.97,59.0,42,2,1.01
93,Minudasht,IR,132938,37.23,55.37,61.25,75,28,0.96
94,Segezha,RU,497927,63.74,34.32,44.17,83,100,12.8
95,Iqaluit,CA,5983720,63.75,-68.51,6.8,71,40,5.82
96,Butaritari,KI,2110227,3.07,172.79,80.71,73,100,11.97
97,Hithadhoo,MV,1282256,-0.6,73.08,83.21,70,49,4.09
98,Hay River,CA,5972762,60.82,-115.8,12.2,72,58,8.05
99,Busselton,AU,2075265,-33.65,115.33,52.0,78,100,3.0
100,Albania,AL,783754,41.0,20.0,59.0,93,75,3.36
101,Mareeba,AU,2158767,-17.0,145.43,71.6,78,35,8.05
102,Tiznit,MA,2527087,29.58,-9.5,62.26,67,100,6.85
103,Maracaibo,VE,3633009,10.63,-71.64,85.78,70,83,4.0
104,Halifax,CA,6324729,44.65,-63.57,37.99,47,20,3.36
105,Catamarca,AR,3837702,-28.47,-65.79,90.0,24,0,8.99
106,Nikolskoye,RU,546105,59.7,30.79,46.4,81,75,8.95
107,Albanel,CA,5883074,48.88,-72.45,28.4,79,100,10.29
108,Zhangye,CN,1785036,38.93,100.45,38.14,60,0,6.24
109,Saskylakh,RU,2017155,71.92,114.08,-4.61,91,97,5.23
110,La Ronge,CA,6050066,55.1,-105.28,42.8,87,100,3.36
111,Killarney,IE,2963370,52.05,-9.52,44.6,93,75,0.98
112,Naze,JP,1855540,28.37,129.48,69.8,64,75,13.87
113,Hasaki,JP,2112802,35.73,140.83,42.8,93,40,5.82
114,Karabulak,RU,552951,43.3,44.9,37.4,86,74,4.47
115,Nerchinskiy Zavod,RU,2019323,51.31,119.61,10.92,94,0,3.6
116,Khatanga,RU,2022572,71.97,102.5,-6.29,90,15,8.19
117,Vaini,TO,4032243,-21.2,-175.2,75.2,83,20,11.41
118,Samarai,PG,2132606,-10.62,150.67,79.84,82,53,11.03
119,Honiara,SB,2108502,-9.43,159.95,75.2,100,75,4.7
120,East London,ZA,1006984,-33.02,27.91,69.4,78,100,7.38
121,Nha Trang,VN,1572151,12.25,109.18,77.0,94,40,3.36
122,Grindavik,IS,3416888,63.84,-22.43,44.6,81,75,24.16
123,Kahului,US,5847411,20.89,-156.47,84.2,58,40,7.02
124,Nobres,BR,3456277,-14.72,-56.33,96.33,21,18,9.4
125,Severo-Kurilsk,RU,2121385,50.68,156.12,37.26,80,98,30.98
126,Pangai,TO,4032369,-19.8,-174.35,77.0,73,20,25.28
127,Kohima,IN,1266366,25.67,94.12,54.0,98,0,1.23
128,Bonfim,BR,3405215,3.08,-59.95,92.82,46,100,4.94
129,Utinga,BR,3392998,-5.82,-35.4,86.0,58,20,17.22
130,Dali,CN,1814093,25.7,100.18,54.39,87,29,4.38
131,Mao,ES,2514301,39.89,4.27,60.8,77,20,14.99
132,Shimoda,JP,1852357,34.67,138.95,56.43,69,5,6.71
133,Tucumcari,US,5495360,35.17,-103.72,78.8,19,1,12.75
134,Wegorzewo,PL,756048,54.22,21.74,43.05,82,69,10.6
135,Longyearbyen,SJ,2729907,78.22,15.64,33.8,69,40,26.4
136,Chuy,UY,3443061,-33.7,-53.46,62.71,58,0,10.33
137,Newport,GB,2641598,51.59,-3.0,45.0,89,29,5.06
138,Ukiah,US,5404476,39.15,-123.21,75.0,37,1,3.36
139,Upernavik,GL,3418910,72.79,-56.15,18.0,96,100,6.69
140,Mahabaleshwar,IN,1264491,17.92,73.67,58.89,73,0,4.29
141,Guerrero Negro,MX,4021858,27.98,-114.06,82.44,36,2,12.1
142,Montmagny,FR,2992287,48.97,2.35,46.99,81,0,5.82
143,Airai,TL,1651810,-8.93,125.41,61.0,81,44,2.48
144,Provideniya,RU,4031574,64.38,-173.3,35.6,98,90,22.37
145,Makokou,GA,2399371,0.57,12.86,70.9,97,100,1.72
146,Mar Del Plata,AR,3430863,-38.0,-57.56,69.8,49,0,19.46
147,Zeerust,ZA,937136,-25.54,26.08,68.0,77,0,4.7
148,Savonlinna,FI,637292,61.87,28.88,42.8,93,75,8.05
149,Ambilobe,MG,1082243,-13.2,49.05,71.02,69,66,3.83
150,Pisco,PE,3932145,-13.7,-76.22,66.99,77,0,11.41
151,Talavera De La Reina,ES,2510693,39.96,-4.83,53.01,85,100,7.0
152,Kemi,FI,653257,65.86,24.82,41.0,86,16,11.41
153,Alofi,NU,4036284,-19.06,-169.92,77.0,83,7,12.75
154,Dukat,RU,2125906,62.55,155.55,-6.23,90,100,6.69
155,Sorong,ID,1626542,-0.88,131.25,78.33,84,100,8.66
156,Concarneau,FR,3024035,47.88,-3.92,46.4,81,0,6.93
157,Roebourne,AU,2062276,-20.78,117.13,74.43,39,0,9.73
158,Armidale,AU,2177671,-30.52,151.65,57.69,68,52,5.64
159,Salvacion,PH,1690741,7.98,126.13,72.66,93,21,1.3
160,Nanortalik,GL,3421765,60.14,-45.24,32.97,89,100,8.34
161,Kavieng,PG,2094342,-2.57,150.8,81.86,78,100,5.84
162,Aklavik,CA,5882953,68.22,-135.01,5.0,84,90,6.93
163,Ketchikan,US,5554428,55.34,-131.65,42.8,65,90,3.36
164,Castro,BR,3466704,-24.79,-50.01,61.52,79,19,6.08
165,Souillac,MU,933995,-20.52,57.52,69.8,83,75,6.93
166,Clyde River,CA,5924351,70.47,-68.59,5.0,65,75,17.22
167,San Jose De Buan,PH,1689399,12.05,125.03,73.9,93,100,1.21
168,Saint George,US,5546220,37.1,-113.58,75.0,29,1,1.32
169,Moa,CU,3546791,20.66,-74.94,76.3,84,100,6.73
170,Tasiilaq,GL,3424607,65.61,-37.64,33.8,50,40,9.17
171,Aksarka,RU,1512019,66.56,67.8,27.97,99,100,4.36
172,Kalmunai,LK,1242110,7.42,81.82,79.12,77,94,1.28
173,Khani,GE,610864,41.96,42.96,69.8,52,40,19.46
174,Avarua,CK,4035715,-21.21,-159.78,71.6,88,95,10.29
175,Vodnyy,RU,472976,63.5,53.41,38.05,93,83,6.98
176,Srednekolymsk,RU,2121025,67.45,153.68,0.95,91,100,20.58
177,Kariba,ZW,889215,-16.52,28.8,78.13,60,6,4.38
178,Nador,MA,2541479,35.17,-2.93,66.2,82,20,4.7
179,Kupang,ID,2057087,-10.17,123.58,78.94,74,76,6.51
180,Mombaca,BR,3394649,-5.74,-39.63,90.39,40,90,5.37
181,Saint-Philippe,RE,935215,-21.36,55.77,71.6,60,75,6.93
182,Ponta Delgada,PT,3372783,37.73,-25.67,59.0,72,40,12.75
183,Neiafu,TO,4032420,-18.65,-173.98,77.0,73,40,12.75
184,Kemijarvi,FI,653272,66.71,27.43,37.94,84,93,12.28
185,Saldanha,ZA,3361934,-33.01,17.94,66.2,72,94,6.93
186,Norman Wells,CA,6089245,65.28,-126.83,-5.8,76,75,1.72
187,Lincoln,US,5072006,40.8,-96.67,75.99,33,1,8.05
188,College,US,5859699,64.86,-147.8,-25.6,67,20,1.34
189,Nautla,MX,3522788,20.22,-96.78,77.88,61,25,14.58
190,Baiao,BR,3406844,-2.79,-49.67,91.63,48,23,3.67
191,Georgetown,MY,1735106,5.41,100.34,78.8,94,20,5.82
192,Esperance,AU,2071860,-33.87,121.9,48.2,87,90,6.93
193,Husavik,IS,2629833,66.04,-17.34,48.2,45,90,33.33
194,Jalu,LY,86049,29.03,21.55,65.37,63,66,8.86
195,Babu,CN,1817858,24.42,111.52,61.18,73,58,2.39
196,Katsuura,JP,2112309,35.13,140.3,55.4,54,20,14.99
197,Traipu,BR,3386198,-9.97,-37.0,87.91,52,100,8.3
198,Fomboni,KM,921889,-12.28,43.74,79.18,74,0,9.26
199,Cherskiy,RU,2126199,68.75,161.3,5.41,86,100,5.01
200,Muros,ES,3115824,42.78,-9.06,54.0,66,79,8.99
201,Cockburn Town,TC,3576994,21.46,-71.14,84.2,66,75,12.75
202,Berlevag,NO,780687,70.86,29.09,33.8,86,75,33.33
203,Havelock,US,4470244,34.88,-76.9,71.6,43,1,9.17
204,Margate,GB,2643044,51.38,1.39,51.01,66,0,6.96
205,Hambantota,LK,1244926,6.12,81.12,79.29,82,83,3.36
206,Santa Rosa,PH,1687894,14.31,121.11,78.8,88,75,2.24
207,Kampot,KH,1831112,10.62,104.18,76.68,76,100,4.23
208,Grand Baie,MU,934482,-20.02,57.58,72.0,72,35,5.01
209,Mizdah,LY,2214827,31.45,12.98,63.16,45,37,6.11
210,Coahuayana,MX,4013679,18.73,-103.68,87.8,43,20,5.37
211,Port Elizabeth,ZA,964420,-33.92,25.57,68.0,88,0,6.93
212,Kostomuksha,RU,543899,64.57,30.58,38.48,87,54,10.96
213,Kodiak,US,5866583,57.79,-152.41,30.2,50,20,8.05
214,Senno,RU,497024,59.53,33.92,44.87,85,100,12.33
215,Kudahuvadhoo,MV,1337607,2.67,72.89,82.53,71,27,2.64
216,Acarau,BR,3408368,-2.89,-40.12,89.6,59,0,19.46
217,Bubaque,GW,2374583,11.28,-15.83,83.98,72,54,9.98
218,Springbok,ZA,3361142,-29.66,17.89,56.64,83,25,5.01
219,Samdari,IN,1257528,25.82,72.58,74.07,34,0,6.46
220,Rio Grande,BR,3451138,-32.03,-52.1,69.8,49,75,18.34
221,Sur,OM,286245,22.57,59.53,71.53,50,0,6.49
222,San Quintin,MX,3984997,30.48,-115.95,75.6,51,84,11.05
223,Ostrzeszow,PL,3089670,51.43,17.93,48.99,69,84,7.02
224,Nome,US,5870133,64.5,-165.41,15.8,72,90,3.36
225,Mount Isa,AU,2065594,-20.73,139.5,75.2,44,0,8.61
226,Limon,CR,3622247,10.0,-83.03,86.0,70,75,5.82
227,Cananeia,BR,3467609,-25.01,-47.93,66.16,83,100,9.04
228,Zhanakorgan,KZ,1517323,43.91,67.25,41.67,60,0,7.58
229,Brae,GB,2654970,60.4,-1.35,50.0,93,75,35.57
230,Jalingo,NG,2336589,8.88,11.37,86.83,37,98,1.52
231,Ulaangom,MN,1515029,49.98,92.07,20.77,79,64,3.67
232,Herrin,US,4240540,37.8,-89.03,75.2,37,20,9.17
233,Rawson,AR,3839307,-43.3,-65.1,78.6,27,19,18.3
234,Taganak,PH,1684606,6.08,118.3,73.4,94,40,11.41
235,Deori,IN,1273201,21.45,82.62,66.94,55,0,2.57
236,Lomovka,RU,534313,53.92,58.37,33.8,74,40,6.71
237,Vanimo,PG,2084442,-2.67,141.3,78.22,83,100,4.59
238,Santiago Del Estero,AR,3835869,-27.8,-64.26,92.88,20,0,15.59
239,Tsabong,BW,932987,-26.02,22.4,70.74,54,100,19.6
240,Teeli,RU,1489828,51.03,90.23,20.8,81,100,2.75
241,Haines Junction,CA,5969025,60.75,-137.51,-13.0,69,100,1.12
242,Kaitangata,NZ,2208248,-46.28,169.85,57.97,83,97,3.74
243,Mnogovershinnyy,RU,2019935,53.94,139.92,16.93,92,84,16.69
244,Surin,TH,1606030,14.88,103.49,72.0,99,100,7.18
245,Mobaye,CF,237478,4.32,21.18,72.95,90,99,1.7
246,Solnechnyy,RU,2016307,50.72,136.63,18.14,84,4,1.3
247,Hengshan,CN,2036920,45.2,130.92,24.78,77,13,5.64
248,Sarankhola,BD,1185239,22.31,89.79,69.03,61,0,3.83
249,Riyadh,SA,108410,24.69,46.72,71.6,33,0,2.24
250,Baruun-Urt,MN,2032614,46.68,113.28,20.55,87,64,2.15
251,Bambanglipuro,ID,1650434,-7.95,110.28,77.83,86,68,3.47
252,Tiksi,RU,2015306,71.69,128.87,0.82,94,100,4.74
253,Cidreira,BR,3466165,-30.18,-50.21,63.86,55,9,10.89
254,Vila Velha,BR,3445026,-20.33,-40.29,75.99,78,90,6.93
255,Alice Springs,AU,2077895,-23.7,133.88,71.6,46,0,8.05
256,Luderitz,NA,3355672,-26.65,15.16,63.88,81,96,12.3
257,Comodoro Rivadavia,AR,3860443,-45.87,-67.5,73.4,18,40,20.8
258,Huarmey,PE,3939168,-10.07,-78.15,69.6,64,3,12.01
259,Okhotsk,RU,2122605,59.38,143.3,16.27,90,98,22.06
260,Tateyama,JP,1850523,34.98,139.87,55.4,54,20,14.99
261,Coffs Harbour,AU,2171085,-30.3,153.13,66.2,72,99,9.17
262,Rosario,AR,3838583,-32.95,-60.64,82.0,29,0,16.11
263,Surt,LY,2210554,31.21,16.59,70.02,63,19,7.38
264,Lazarev,RU,2123836,52.23,141.51,25.36,85,48,22.97
265,Namatanai,PG,2090021,-3.67,152.43,80.94,79,100,8.5
266,Palu,ID,1633034,-0.89,119.87,75.24,79,0,3.11
267,Tshikapa,CD,204953,-6.42,20.8,73.85,91,100,5.21
268,Renala Khurd,PK,1166933,30.88,73.6,63.1,26,0,1.81
269,Bambous Virieux,MU,1106677,-20.34,57.76,72.0,83,75,6.93
270,Atherton,GB,2656847,53.52,-2.49,44.01,73,1,2.77
271,Ponta Do Sol,PT,2264557,32.67,-17.1,62.6,77,75,8.05
272,Yatou,CN,1786855,37.15,122.38,50.76,73,93,8.66
273,Eureka,US,5563397,40.8,-124.16,69.01,83,0,1.99
274,Lavrentiya,RU,4031637,65.58,-171.0,24.84,98,100,11.45
275,Peniche,PT,2264923,39.36,-9.38,55.0,66,100,5.99
276,Coihaique,CL,3894426,-45.58,-72.07,53.6,62,75,11.41
277,Lorengau,PG,2092164,-2.02,147.27,80.82,78,98,3.74
278,New Norfolk,AU,2155415,-42.78,147.06,45.0,66,0,2.91
279,Doha,QA,290030,25.29,51.53,78.8,65,0,1.12
280,Ihosy,MG,1064275,-22.4,46.12,67.77,77,15,6.82
281,Ginda,IN,1253628,30.69,78.49,47.66,50,0,5.5
282,Necochea,AR,3430443,-38.55,-58.74,75.99,46,98,27.0
283,Masvingo,ZW,886763,-20.06,30.83,68.54,78,80,4.23
284,Prachuap Khiri Khan,TH,1151073,12.22,99.75,70.07,93,69,2.98
285,Oriximina,BR,3393471,-1.77,-55.87,92.7,48,47,4.05
286,San Vicente,AR,3428068,-26.62,-54.13,77.16,25,0,7.25
287,Tura,IN,1254046,25.52,90.22,63.32,55,0,0.67
288,Beringovskiy,RU,2126710,63.05,179.32,36.36,93,100,17.43
289,Ahuimanu,US,5856516,21.44,-157.84,82.4,78,90,6.93
290,Atbasar,KZ,1526038,51.8,68.33,31.62,94,0,11.12
291,Gat,IL,293842,31.61,34.76,66.99,100,64,1.01
292,Atar,MR,2381334,20.52,-13.05,86.61,14,0,4.54
293,Bataipora,BR,3470338,-22.3,-53.27,85.87,31,2,5.93
294,Hurghada,EG,361291,27.26,33.81,75.2,38,0,9.17
295,Swan Hill,AU,2147756,-35.34,143.55,48.74,73,2,14.79
296,Tarko-Sale,RU,1490085,64.92,77.78,18.45,97,99,9.75
297,Buala,SB,2109528,-8.14,159.59,82.24,77,100,6.76
298,Shache,CN,1280037,38.42,77.24,39.49,55,0,5.97
299,Camacha,PT,2270385,33.08,-16.33,60.8,82,40,13.87
300,Jumla,NP,1283285,29.27,82.18,38.86,66,0,4.81
301,Moree,AU,2156927,-29.47,149.85,62.6,63,37,10.65
302,Ribeira Grande,PT,3372707,38.52,-28.7,60.8,63,75,9.17
303,Lalmohan,BD,1185251,22.34,90.74,76.71,84,0,7.76
304,Labuhan,ID,8079926,-6.88,112.21,79.38,84,95,7.49
305,Coquimbo,CL,3893629,-29.95,-71.34,59.0,77,90,12.75
306,Voyvozh,RU,471308,62.89,54.96,38.01,95,100,9.37
307,Purpe,RU,1539210,64.48,76.69,21.4,98,97,7.9
308,Zeya,RU,2012593,53.75,127.27,16.3,90,88,4.34
309,Boende,CD,218680,-0.22,20.87,74.08,92,61,2.24
310,Mahebourg,MU,934322,-20.41,57.7,69.8,83,75,6.93
311,Kidal,ML,2455290,18.44,1.41,80.96,20,45,7.16
312,Larsnes,NO,3148133,62.2,5.58,45.0,81,75,27.51
313,Saint-Augustin,CA,6137462,51.23,-58.65,28.58,74,100,17.36
314,Raga,SS,368246,8.46,25.68,77.07,48,0,3.38
315,Sai Buri,TH,1606851,6.7,101.62,75.96,91,100,3.65
316,Saint Anthony,US,5044290,45.02,-93.22,71.6,28,1,11.41
317,Challans,FR,3027513,46.84,-1.87,45.0,84,0,4.0
318,Sioux Lookout,CA,6148373,50.1,-91.92,55.4,50,20,4.7
319,Tukrah,LY,88834,32.53,20.58,68.9,63,89,8.63
320,Yar-Sale,RU,1486321,66.83,70.83,20.62,98,100,9.48
321,Kununurra,AU,2068110,-15.77,128.73,77.0,78,0,1.12
322,Sisimiut,GL,3419842,66.94,-53.67,26.98,96,100,23.96
323,Faanui,PF,4034551,-16.48,-151.75,79.41,78,92,15.26
324,Kanigiri,IN,1268059,15.4,79.52,75.52,63,0,5.84
325,Owo,NG,2325314,7.2,5.59,78.48,67,100,4.7
326,Bay Roberts,CA,5895424,47.6,-53.26,28.99,58,75,18.34
327,Sayyan,YE,70979,15.17,44.32,49.55,43,0,2.39
328,Norden,DE,2862118,53.6,7.2,46.4,87,40,8.05
329,Tuatapere,NZ,2180815,-46.13,167.68,60.01,89,86,10.0
330,Eirunepe,BR,3664321,-6.66,-69.87,93.47,47,91,2.89
331,Maningrida,AU,2067089,-12.07,134.27,79.27,76,100,1.34
332,Tuktoyaktuk,CA,6170031,69.45,-133.04,10.4,85,90,11.41
333,Harper,LR,2276492,4.38,-7.72,78.91,88,76,5.79
334,Haverfordwest,GB,2647311,51.8,-4.97,43.0,93,33,4.7
335,Mingguang,CN,1800519,32.78,117.96,52.21,70,77,6.35
336,Vao,NC,2137773,-22.67,167.48,72.68,87,4,9.24
337,Geraldton,AU,2070998,-28.77,114.6,59.0,77,0,1.12
338,Hualmay,PE,3939761,-11.1,-77.61,68.43,67,20,10.92
339,Blagoyevo,RU,576093,63.37,47.92,37.89,91,3,6.31
340,Sola,VU,2134814,-13.88,167.55,81.03,82,100,8.03
341,Sao Filipe,CV,3374210,14.9,-24.5,77.07,81,100,8.25
342,Chernyshevskiy,RU,2025456,63.01,112.47,10.85,97,89,1.74
343,Luancheng,CN,1802204,37.88,114.65,44.6,65,100,4.47
344,Bilma,NE,2446796,18.69,12.92,74.32,20,0,6.49
345,Batemans Bay,AU,2176639,-35.72,150.18,51.01,96,100,5.01
346,Asfi,MA,2537881,32.3,-9.24,66.11,70,100,20.58
347,Te Anau,NZ,2181625,-45.42,167.72,59.88,88,82,3.62
348,Thinadhoo,MV,1337610,0.53,72.93,83.01,69,0,3.71
349,San Patricio,US,4726521,28.02,-97.52,82.4,42,40,13.87
350,Kaohsiung,TW,1673820,22.62,120.31,75.99,69,75,5.82
351,Maxixe,MZ,1039536,-23.86,35.35,77.0,83,40,16.11
352,Thompson,CA,6165406,55.74,-97.86,26.6,100,90,3.36
353,Pandan,PH,1695546,14.05,124.17,78.78,84,100,8.72
354,Kill,IE,2963388,52.18,-7.33,45.0,86,40,3.36
355,Chokwe,MZ,1048364,-24.53,32.98,82.81,56,97,7.94
356,San Cristobal,VE,3628473,7.77,-72.22,87.8,62,40,11.41
357,Maun,BW,933366,-19.98,23.42,78.8,50,0,3.36
358,Olafsvik,IS,3414079,64.89,-23.71,44.33,71,62,30.91
359,Jambi,ID,1642858,-1.6,103.62,73.71,95,91,1.41
360,Riachao Das Neves,BR,3451478,-11.75,-44.91,73.71,91,100,5.08
361,Shenjiamen,CN,1795632,29.96,122.3,61.81,66,77,8.95
362,Pakdasht,IR,32767,35.48,51.68,59.0,28,0,1.48
363,Makakilo City,US,5850554,21.35,-158.09,82.4,74,40,6.93
364,Clyde,US,5150651,41.3,-82.98,71.6,35,1,13.87
365,Tari,NG,2322495,12.41,4.49,85.26,25,0,8.48
366,Chicama,PE,3698359,-7.84,-79.15,66.2,72,2,12.75
367,Varnavino,RU,476982,57.4,45.09,40.68,95,100,6.64
368,Guilin,CN,1809498,25.28,110.29,64.4,82,90,4.05
369,Havre-Saint-Pierre,CA,5972291,50.23,-63.6,28.4,68,1,18.34
370,Esmeraldas,BR,3464008,-19.76,-44.31,80.6,41,40,9.17
371,Iwaki,JP,2112539,37.05,140.88,46.0,76,24,6.85
372,Bayji,IQ,97783,34.93,43.49,77.92,26,100,13.13
373,Numan,NG,2328617,9.47,12.03,87.8,31,83,1.07
374,Eyl,SO,60019,7.98,49.82,78.04,68,81,14.41
375,Kruisfontein,ZA,986717,-34.0,24.73,69.01,80,100,4.0
376,Kollo,NE,2442248,13.3,2.34,89.6,18,13,4.7
377,Tagbina,PH,1684491,8.45,126.17,73.26,97,61,2.21
378,Vestmannaeyjar,IS,3412093,63.44,-20.27,46.4,81,90,17.22
379,San Jose,US,5392171,37.34,-121.89,73.99,59,20,3.36
380,Arman,RU,2127060,59.7,150.17,11.55,87,89,15.14
381,Valparaiso,CL,3868626,-33.04,-71.63,61.0,67,75,8.05
382,Santa Engracia,ES,3108269,41.94,-1.32,52.0,93,90,3.36
383,Manta,EC,3654410,-0.95,-80.73,82.4,61,20,14.99
384,Gemena,CD,2315728,3.25,19.77,72.1,96,100,2.53
385,Svetlogorsk,BY,10722858,52.63,29.73,43.72,88,42,8.05
386,Abu Samrah,SY,172515,35.3,37.18,61.38,75,100,12.06
387,Skibbereen,IE,2961459,51.55,-9.27,44.6,75,75,5.82
388,Vittorio Veneto,IT,3164028,45.98,12.3,62.01,82,40,4.7
389,Farmington,US,5467328,36.73,-108.22,66.99,27,1,10.29
390,Torrington,US,4844309,41.8,-73.12,61.0,56,0,1.99
391,Nhulunbuy,AU,2064735,-12.23,136.77,75.2,83,2,4.7
392,Glyadyanskoye,RU,1506499,54.91,65.09,33.1,93,0,8.84
393,Enid,US,4535961,36.4,-97.88,72.0,37,1,21.92
394,Richards Bay,ZA,962367,-28.78,32.04,73.4,86,100,4.56
395,Usinsk,RU,863061,65.99,57.53,36.23,95,99,9.26
396,Luganville,VU,2136150,-15.53,167.17,75.2,94,75,3.18
397,Nicolas Bravo,MX,3522742,18.45,-88.92,75.2,100,90,4.7
398,Paamiut,GL,3421193,61.99,-49.67,31.15,90,100,10.18
399,Tabanan,ID,1625708,-8.54,115.13,76.32,89,59,3.87
400,Alanya,TR,324190,36.54,32.0,53.6,81,0,4.7
401,Ojinaga,MX,3994469,29.57,-104.42,80.6,18,1,3.36
402,Honningsvag,NO,779554,70.98,25.97,39.2,80,40,20.8
403,Saint Marys,US,4220629,30.73,-81.55,75.2,50,40,13.87
404,Stornoway,GB,2636790,58.21,-6.39,51.01,93,75,12.75
405,Boa Vista,BR,3664980,2.82,-60.67,84.2,74,75,8.05
406,Olga,RU,2018553,43.74,135.29,28.09,80,90,3.56
407,Tual,ID,1623197,-5.67,132.75,82.54,78,99,14.34
408,Soledade,BR,3447423,-28.82,-52.51,73.4,33,0,23.04
409,Nouadhibou,MR,2377457,20.93,-17.03,68.0,82,0,14.99
410,Pano Aqil,PK,1168412,27.86,69.11,66.2,72,0,3.11
411,Mitchell,US,5229794,43.71,-98.03,75.2,27,1,4.7
412,Plettenberg Bay,ZA,964712,-34.05,23.37,64.92,85,96,8.32
413,Marathon,US,5261790,44.9,-89.77,73.4,30,1,9.17
414,Vila Franca Do Campo,PT,3372472,37.72,-25.43,59.0,72,40,12.75
415,Cam Ranh,VN,1586350,11.92,109.16,77.0,94,40,3.36
416,Tomatlan,MX,3981391,19.93,-105.25,91.13,39,15,6.26
417,Shitanjing,CN,1794971,39.23,106.34,39.92,56,95,3.06
418,Fenoarivo,MG,1070940,-18.93,47.44,62.6,77,75,2.24
419,Neyshabur,IR,122285,36.21,58.8,52.07,34,0,2.44
420,Carutapera,BR,3402648,-1.2,-46.02,83.64,71,73,10.33
421,Tocopilla,CL,3869716,-22.09,-70.2,67.21,50,21,9.93
422,Port Hedland,AU,2063042,-20.32,118.57,75.2,73,1,10.29
423,Leh,IN,1264976,34.17,77.58,27.81,69,11,4.23
424,Novaya Chigla,RU,519777,51.22,40.48,45.95,90,13,4.54
425,Kousseri,CM,2229798,12.08,15.03,86.0,23,0,9.17
426,Marsh Harbour,BS,3571913,26.54,-77.06,77.41,71,58,26.4
427,Strezhevoy,RU,1490796,60.73,77.59,35.6,97,90,13.42
428,Yasnyy,RU,468657,51.03,59.87,41.72,66,45,10.87
429,Ola,RU,2122574,59.58,151.28,14.92,88,91,15.88
430,Lindi,TZ,878281,-10.0,39.72,75.2,78,20,4.59
431,Santa Fe,AR,3836277,-31.63,-60.7,84.0,24,91,8.01
432,Half Moon Bay,US,5354943,37.46,-122.43,70.0,77,1,11.41
433,Veracruz,MX,3514780,19.33,-96.67,84.2,42,5,14.99
434,Foki,RU,562580,56.69,54.35,31.17,98,5,1.97
435,Grand Gaube,MU,934479,-20.01,57.66,72.0,72,45,5.01
436,Aviles,ES,3129135,43.55,-5.92,52.0,81,75,16.11
437,Bani Walid,LY,2218840,31.76,13.99,67.01,44,41,6.46
438,Lujiang,CN,1802068,31.26,117.28,55.99,62,0,4.47
439,Kaeo,NZ,2189343,-35.1,173.78,63.0,97,100,13.0
440,Mapiripan,CO,3792394,2.89,-72.13,80.08,79,90,2.24
441,Flin Flon,CA,5954718,54.77,-101.86,35.6,97,90,3.36
442,Rognan,NO,3141548,67.1,15.39,42.01,89,100,9.1
443,Sibolga,ID,1213855,1.74,98.78,76.93,77,93,2.93
444,Aljezur,PT,2271968,37.32,-8.8,55.47,69,100,8.28
445,Morondava,MG,1058381,-20.28,44.28,77.58,80,0,10.47
446,Kambove,CD,923058,-10.88,26.6,63.54,86,50,5.75
447,Sampit,ID,1628884,-2.53,112.95,74.25,98,100,3.06
448,Oum Hadjer,TD,2426370,13.3,19.7,86.38,17,2,15.68
449,Dothan,US,4059102,31.22,-85.39,73.4,27,1,5.82
450,Cayenne,GF,3382160,4.93,-52.33,78.8,88,95,3.36
451,Saint-Joseph,RE,6690296,-21.37,55.62,71.6,60,75,6.93
452,Staroutkinsk,RU,488593,57.23,59.33,32.76,95,68,7.56
453,Simbahan,PH,1695180,6.3,120.58,82.24,74,99,2.26
454,Bartlett,US,4604183,35.2,-89.87,73.99,37,1,6.93
455,Ilulissat,GL,3423146,69.22,-51.1,28.4,74,75,10.29
456,Bacungan,PH,1729456,9.91,118.7,78.4,83,99,3.02
457,Cabedelo,BR,3404558,-6.98,-34.83,82.4,74,0,13.87
458,Doume,CM,2232497,4.23,13.45,71.58,82,57,1.77
459,Glenn Heights,US,4693726,32.55,-96.86,73.99,40,1,11.41
460,Bara,NG,2347758,10.37,10.73,84.27,30,34,11.3
461,Telemaco Borba,BR,3446652,-24.32,-50.62,67.48,68,76,2.91
462,Sawtell,AU,2150163,-30.38,153.1,66.2,72,99,9.17
463,Khingansk,RU,2022454,49.12,131.18,12.76,97,0,4.68
464,Fare,PF,4034496,-16.7,-151.02,79.34,81,64,12.53
465,Neepawa,CA,6086673,50.23,-99.47,64.4,38,20,20.8
466,Dingle,PH,1714733,11.0,122.67,76.26,89,100,1.41
467,Flinders,AU,6255012,-34.58,150.86,62.01,86,100,5.01
468,Nambutalai,IN,1262032,9.72,79.0,81.79,79,100,8.55
469,Yulara,AU,6355222,-25.24,130.99,71.6,49,1,13.87
470,Luwuk,ID,1637001,-0.95,122.79,77.76,75,0,2.53
471,Una,IN,1253783,20.82,71.03,78.17,46,0,5.75
472,Calabozo,VE,3647444,8.92,-67.43,83.14,79,97,6.4
473,Ormara,PK,1168700,25.21,64.64,75.63,76,0,12.84
474,Champerico,GT,3598787,14.3,-91.92,87.8,70,40,6.93
475,Santa Isabel,BR,3450188,-23.32,-46.22,73.4,60,40,10.29
476,Vaitape,PF,4033077,-16.52,-151.75,80.29,77,99,15.39
477,Sotik,KE,179888,-0.68,35.12,58.14,92,66,2.62
478,Kaiyuan,CN,1804850,23.7,103.3,56.64,87,54,3.4
479,Avera,US,4231997,33.19,-82.53,71.6,30,1,9.17
480,Dauphin,CA,5935341,51.15,-100.05,59.0,41,1,20.8
481,Ambon,ID,1651531,-3.7,128.18,81.0,93,84,6.42
482,Homer,US,5864145,59.64,-151.55,21.0,48,1,3.36
483,Hohhot,CN,2036892,40.81,111.65,24.8,68,0,2.24
484,Shingu,JP,1847947,33.73,135.98,45.63,69,0,5.91
485,Umm Kaddadah,SD,364933,13.6,26.69,80.76,19,0,18.3
486,Moron,AR,3430545,-34.65,-58.62,75.99,34,26,5.99
487,Samfya,ZM,899274,-11.36,29.56,76.1,32,0,4.18
488,Bengkulu,ID,1649150,-3.8,102.27,75.49,86,100,3.74
489,Veraval,IN,1253237,20.9,70.37,80.01,58,0,3.56
490,Quatre Cocos,MU,1106643,-20.21,57.76,72.0,83,75,6.93
491,Kortkeros,RU,544397,61.81,51.58,41.0,100,75,6.71
492,Najran,SA,103630,17.49,44.13,64.4,23,0,1.21
493,Kindu,CD,212902,-2.95,25.95,72.59,94,97,1.23
494,Bisho,ZA,1019330,-32.85,27.44,61.12,96,100,5.59
495,Vuktyl,RU,470905,63.86,57.31,37.29,94,100,8.39
496,Grand-Santi,GF,3381538,4.25,-54.38,88.99,56,100,3.24
497,Ulaanbaatar,MN,2028462,47.91,106.88,21.2,79,75,2.24
498,Fraserburgh,GB,2649089,57.69,-2.02,46.99,72,100,11.99
499,Kano,NG,2335204,12.0,8.52,83.1,25,87,7.38
500,Lodja,CD,211647,-3.48,23.43,75.96,77,77,1.39
501,Svetlyy Yar,RU,485643,48.47,44.78,42.8,75,75,8.95
502,Filadelfia,US,4560349,39.95,-75.16,66.99,34,1,11.41
503,Berdigestyakh,RU,2026861,62.1,126.7,3.9,94,100,6.38
504,Verkhnetulomskiy,RU,475469,68.61,31.8,37.4,86,75,6.71
505,Innisfail,AU,2162683,-17.53,146.03,68.9,84,52,4.27
506,Gander,CA,5959335,48.97,-54.59,28.4,54,20,16.11
507,Usakos,NA,3352461,-22.0,15.6,57.92,57,0,4.12
508,Evensk,RU,2125693,61.95,159.23,30.96,98,100,9.82
509,Laguna,US,5364271,38.42,-121.42,72.0,42,1,4.07
510,Altar,MX,4018700,30.7,-111.82,90.0,27,81,5.01
511,Port Hawkesbury,CA,6111867,45.62,-61.35,39.99,75,75,4.7
512,Port Said,EG,358619,31.26,32.28,71.6,73,40,13.87
513,Mutoko,ZW,884927,-17.4,32.23,75.11,45,94,5.35
514,Asau,RO,686090,46.43,26.4,37.99,97,0,1.79
515,Beloha,MG,1067565,-25.17,45.05,67.87,89,50,4.0
516,Namtsy,RU,2019488,62.72,129.67,5.0,84,0,8.95
517,Azangaro,PE,3946937,-14.92,-70.22,66.2,14,40,8.05
518,Mehamn,NO,778707,71.04,27.85,39.2,83,40,20.8
519,Zavodouspenskoye,RU,1485354,56.86,65.02,39.2,69,0,11.18
520,Qinzhou,CN,1797551,21.95,108.62,66.07,74,35,5.03
521,Dabat,ET,340358,12.98,37.77,56.05,54,25,3.11
522,Klaksvik,FO,2618795,62.23,-6.59,50.0,100,97,31.09
523,Tevaitoa,PF,4033375,-16.78,-151.5,80.24,77,97,15.14
524,Tilichiki,RU,2120591,60.47,166.1,33.8,100,100,18.61
525,Saint-Pierre,RE,935214,-21.34,55.48,71.6,60,75,6.93
526,Korla,CN,1529376,41.76,86.15,42.12,53,2,9.19
527,Marawi,PH,1701054,8.0,124.29,75.99,89,98,3.0
528,Chapais,CA,5919850,49.78,-74.85,23.0,92,90,9.17
529,Angoche,MZ,1052944,-16.23,39.91,79.63,72,0,13.73
530,Redlands,US,5386754,34.06,-117.18,89.01,21,0,1.99
531,Mankono,CI,2284589,8.06,-6.19,79.09,67,0,0.89
532,Puerto Gaitan,CO,3769976,4.31,-72.08,84.83,71,94,7.78
533,Puri,IN,1259184,19.8,85.85,73.4,78,1,5.68
534,Igrim,RU,1505965,63.19,64.42,36.46,87,25,10.18
535,Santa Marta,CO,3668605,11.24,-74.2,87.01,71,98,1.01
536,Amuntai,ID,1651461,-2.42,115.25,74.82,97,36,1.59
537,Nelson Bay,AU,2155562,-32.72,152.15,64.4,82,90,4.7
538,Agulu,NG,2351740,6.11,7.07,74.23,92,100,7.31
539,Roald,NO,3141667,62.58,6.13,46.0,87,75,23.04
540,Selma,US,5394329,36.57,-119.61,73.4,35,1,4.16
541,Iskateley,RU,866062,67.68,53.15,33.6,94,31,11.68
542,Marfino,RU,529368,55.7,37.38,46.4,87,75,8.95
543,Boyolangu,ID,1648082,-8.12,111.89,76.59,87,57,2.06
544,Maloy,NO,3146487,61.94,5.11,48.2,81,75,26.4
545,Vagamo,NO,3133053,61.88,9.1,32.67,88,84,5.73
546,Calatayud,ES,3127047,41.35,-1.64,50.0,93,90,13.87
547,Keningau,MY,1734098,5.34,116.16,75.2,94,40,4.7
548,Berbera,SO,64435,10.44,45.01,78.73,60,0,2.17
549,Lata,PT,2738381,40.16,-8.33,57.0,76,100,11.01
550,Gombong,ID,1643920,-7.61,109.51,64.99,86,44,2.21
551,Jetalsar,IN,1269070,21.7,70.58,75.72,38,0,4.76
552,Wexford,IE,2960964,52.33,-6.46,46.99,86,40,3.36
553,Aksay,RU,583673,47.26,39.87,50.0,76,0,13.42
554,Serowe,BW,933088,-22.38,26.72,73.81,64,41,10.25
555,Marzuq,YE,72181,14.4,46.47,60.71,31,0,1.12
556,Bela,IN,1276574,25.93,81.98,66.2,31,0,2.26
557,Karratha,AU,6620339,-20.74,116.85,72.84,44,0,7.83
558,Galich,RU,562161,58.38,42.35,43.61,91,100,8.32
559,Manga,BF,2358100,11.66,-1.07,83.86,30,20,2.71
560,Pringsewu,ID,1630639,-5.36,104.97,74.28,91,100,2.42
561,Darhan,MN,2031964,49.49,105.92,28.4,97,100,5.59
562,Kamenka,RU,553766,51.32,42.77,39.0,95,75,6.67
